{
	"Synagogues": [
		{
			"Id": "1",
			"neighborho": "רמות",
			"street": "רחבעם זאב",
			"HouseNumbe": "4",
			"name": "חבד בהליך",
			"lat": "31.283204565000062",
			"lon": "34.807258508000075"
		},
		{
			"Id": "2",
			"neighborho": "רמות",
			"street": "בלוך רודו",
			"HouseNumbe": "45",
			"name": "בלוך רודו מקלט",
			"lat": "31.27375355600003",
			"lon": "34.80703817600005"
		},
		{
			"Id": "3",
			"neighborho": "רמות",
			"street": "ילין דוד",
			"HouseNumbe": "43",
			"name": "קול ברמה מקלט",
			"lat": "31.271028294000075",
			"lon": "34.80624156600004"
		},
		{
			"Id": "4",
			"neighborho": "רמות",
			"street": "גרינפלד",
			"HouseNumbe": "",
			"name": "הארי הקדוש",
			"lat": "31.281876213000032",
			"lon": "34.79993298800008"
		},
		{
			"Id": "5",
			"neighborho": "רמות",
			"street": "אשכולית",
			"HouseNumbe": "",
			"name": "שערי ניסים",
			"lat": "31.287571409000066",
			"lon": "34.80242750100007"
		},
		{
			"Id": "6",
			"neighborho": "רמות",
			"street": "הר תבור",
			"HouseNumbe": "6",
			"name": "הר חברון",
			"lat": "31.276773809000076",
			"lon": "34.81128199400007"
		},
		{
			"Id": "7",
			"neighborho": "ד",
			"street": "גבאי",
			"HouseNumbe": "14",
			"name": "עולי בוכרה",
			"lat": "31.271846465000067",
			"lon": "34.79439581400004"
		},
		{
			"Id": "8",
			"neighborho": "ו",
			"street": "ח\"ן",
			"HouseNumbe": "19",
			"name": "תורה וחסד",
			"lat": "31.265901318000033",
			"lon": "34.776514587000065"
		},
		{
			"Id": "9",
			"neighborho": "רמות",
			"street": "ילין",
			"HouseNumbe": "36",
			"name": "אל- בנוי",
			"lat": "31.273123344000055",
			"lon": "34.805368964000024"
		},
		{
			"Id": "10",
			"neighborho": "רמות",
			"street": "זרחין",
			"HouseNumbe": "5",
			"name": "אמרי יוסף",
			"lat": "31.273918706000075",
			"lon": "34.80510590000006"
		},
		{
			"Id": "11",
			"neighborho": "רמות",
			"street": "אביגד",
			"HouseNumbe": "5",
			"name": "רינת מרים",
			"lat": "31.275307007000038",
			"lon": "34.80087574300006"
		},
		{
			"Id": "12",
			"neighborho": "רמות",
			"street": "גינצבורג",
			"HouseNumbe": "15",
			"name": "אפיקי תימן",
			"lat": "31.27447555300006",
			"lon": "34.80650137600003"
		},
		{
			"Id": "13",
			"neighborho": "רמות",
			"street": "דה שליט",
			"HouseNumbe": "40",
			"name": "תפילת חנה",
			"lat": "31.273176104000072",
			"lon": "34.80739702000005"
		},
		{
			"Id": "14",
			"neighborho": "רמות",
			"street": "פריבס",
			"HouseNumbe": "4",
			"name": "מרום אל",
			"lat": "31.279360326000074",
			"lon": "34.80018371700004"
		},
		{
			"Id": "15",
			"neighborho": "רמות",
			"street": "פריבס",
			"HouseNumbe": "4",
			"name": "רמות שלמה",
			"lat": "31.27952153700005",
			"lon": "34.800435641000036"
		},
		{
			"Id": "16",
			"neighborho": "נווה מנחם",
			"street": "אהרונסון",
			"HouseNumbe": "10",
			"name": "עולי הודו",
			"lat": "31.266431227000055",
			"lon": "34.76188683400005"
		},
		{
			"Id": "17",
			"neighborho": "נווה מנחם",
			"street": "אהרונסון",
			"HouseNumbe": "10",
			"name": "מקווה",
			"lat": "31.266431227000055",
			"lon": "34.76188683400005"
		},
		{
			"Id": "18",
			"neighborho": "נווה מנחם",
			"street": "אלרואי",
			"HouseNumbe": "1",
			"name": "יוסף חיים",
			"lat": "31.26450337500006",
			"lon": "34.76437993600007"
		},
		{
			"Id": "19",
			"neighborho": "ד",
			"street": "גבאי",
			"HouseNumbe": "1",
			"name": "ברית שלום",
			"lat": "31.271906906000027",
			"lon": "34.79581703700006"
		},
		{
			"Id": "20",
			"neighborho": "ט",
			"street": "שומרון",
			"HouseNumbe": "58",
			"name": "בית שלמה- בנוי",
			"OtherName": "בית שלמה",
			"lat": "31.246653254000023",
			"lon": "34.76516413200005"
		},
		{
			"Id": "21",
			"neighborho": "ט",
			"street": "גורן",
			"HouseNumbe": "59",
			"name": "בית כנסת",
			"lat": "31.245907980000027",
			"lon": "34.76488260700006"
		},
		{
			"Id": "22",
			"neighborho": "ט",
			"street": "עכו",
			"HouseNumbe": "63",
			"name": "יאיר מזוז",
			"lat": "31.25178568900003",
			"lon": "34.76747684700007"
		},
		{
			"Id": "23",
			"neighborho": "ד",
			"street": "אליהו הנב",
			"HouseNumbe": "21",
			"name": "ציפורן",
			"lat": "31.266717356000072",
			"lon": "34.79262827100007"
		},
		{
			"Id": "24",
			"neighborho": "ד",
			"street": "אליהו הנב",
			"HouseNumbe": "19",
			"name": "רבי אליעזר - ד",
			"lat": "31.26660385300005",
			"lon": "34.79229029800007"
		},
		{
			"Id": "25",
			"neighborho": "ד",
			"street": "דוד המלך",
			"HouseNumbe": "8",
			"name": "דוד המלך - ד",
			"lat": "31.264569911000024",
			"lon": "34.79188049000004"
		},
		{
			"Id": "26",
			"neighborho": "ד",
			"street": "אלעזר בן יאיר",
			"HouseNumbe": "31",
			"name": "מקלט - אלעזר בן יאיר",
			"lat": "31.262432614000033",
			"lon": "34.79052351200005"
		},
		{
			"Id": "27",
			"neighborho": "ד",
			"street": "רבי עקיבא",
			"HouseNumbe": "74",
			"name": "רבי עקיבא - ד",
			"lat": "31.261922997000056",
			"lon": "34.790660571000046"
		},
		{
			"Id": "28",
			"neighborho": "ד",
			"street": "בר גיורא",
			"HouseNumbe": "18",
			"name": "בר גיורא",
			"lat": "31.26140170700006",
			"lon": "34.79153229800005"
		},
		{
			"Id": "29",
			"neighborho": "ד",
			"street": "בר גיורא",
			"HouseNumbe": "9",
			"name": "חרצית - אלי כהן",
			"lat": "31.260894447000055",
			"lon": "34.79308660800007"
		},
		{
			"Id": "30",
			"neighborho": "ד",
			"street": "גבאי",
			"HouseNumbe": "15",
			"name": "אהל משה",
			"lat": "31.27159735600003",
			"lon": "34.794743968000034"
		},
		{
			"Id": "31",
			"neighborho": "ד",
			"street": "רבי טרפון",
			"HouseNumbe": "6",
			"name": "שבט אחים - רבי טרפון",
			"lat": "31.259858519000034",
			"lon": "34.79335616900005"
		},
		{
			"Id": "32",
			"neighborho": "ד",
			"street": "רבי עקיבא",
			"HouseNumbe": "20",
			"name": "מעיינות",
			"lat": "31.25938106600006",
			"lon": "34.79299170400003"
		},
		{
			"Id": "33",
			"neighborho": "ב",
			"street": "סעדיה גאו",
			"HouseNumbe": "12",
			"name": "נצח ישראל",
			"lat": "31.257160486000032",
			"lon": "34.789823299000034"
		},
		{
			"Id": "34",
			"neighborho": "ב",
			"street": "הוברמן",
			"HouseNumbe": "24",
			"name": "מקלט הוברמן",
			"lat": "31.254027001000054",
			"lon": "34.79008506100007"
		},
		{
			"Id": "35",
			"neighborho": "ב",
			"street": "הוברמן",
			"HouseNumbe": "24",
			"name": "קול יהודה",
			"lat": "31.254135423000037",
			"lon": "34.790489182000044"
		},
		{
			"Id": "36",
			"neighborho": "ב",
			"street": "הוברמן",
			"HouseNumbe": "24",
			"name": "תורה וחיים",
			"lat": "31.254211079000072",
			"lon": "34.790203131000055"
		},
		{
			"Id": "37",
			"neighborho": "ב",
			"street": "שטרוק",
			"HouseNumbe": "5",
			"name": "אהל יעקב",
			"lat": "31.253538460000073",
			"lon": "34.78931076400005"
		},
		{
			"Id": "38",
			"neighborho": "ד",
			"street": "רבי עקיבא",
			"HouseNumbe": "13",
			"name": "משה שלום",
			"lat": "31.25908288900007",
			"lon": "34.792655049000075"
		},
		{
			"Id": "39",
			"neighborho": "ד",
			"street": "אבן עזרא",
			"HouseNumbe": "32",
			"name": "מעיין חיים - ג",
			"lat": "31.27065647300003",
			"lon": "34.78533276100006"
		},
		{
			"Id": "40",
			"neighborho": "ד",
			"street": "התלמוד",
			"HouseNumbe": "62",
			"name": "אחדות ישראל",
			"lat": "31.26958882100007",
			"lon": "34.78536576600004"
		},
		{
			"Id": "41",
			"neighborho": "ד",
			"street": "גבאי",
			"HouseNumbe": "33",
			"name": "חללי צה\"ל",
			"lat": "31.27109768300005",
			"lon": "34.79339141300005"
		},
		{
			"Id": "42",
			"neighborho": "ד",
			"street": "סנהדרין",
			"HouseNumbe": "164",
			"name": "יד לאחים",
			"lat": "31.26871982600005",
			"lon": "34.785888544000045"
		},
		{
			"Id": "43",
			"neighborho": "נווה מנחם",
			"street": "שיבא",
			"HouseNumbe": "4",
			"name": "חוני המעגל",
			"lat": "31.26074690200005",
			"lon": "34.75913507700005"
		},
		{
			"Id": "44",
			"neighborho": "יא",
			"street": "זלמן ארן",
			"HouseNumbe": "20",
			"name": "רש\"ל- בנוי",
			"lat": "31.256358411000065",
			"lon": "34.76092837600004"
		},
		{
			"Id": "45",
			"neighborho": "יא",
			"street": "הרא\"ש",
			"HouseNumbe": "9",
			"name": "שמש",
			"lat": "31.259222117000036",
			"lon": "34.77370438300005"
		},
		{
			"Id": "46",
			"neighborho": "יא",
			"street": "רמ\"א",
			"HouseNumbe": "133",
			"name": "חסד ליעקב",
			"lat": "31.258605072000023",
			"lon": "34.77076578600003"
		},
		{
			"Id": "47",
			"neighborho": "יא",
			"street": "הרא\"ש",
			"HouseNumbe": "8",
			"name": "בית אבות",
			"lat": "31.259127212000067",
			"lon": "34.772928927000066"
		},
		{
			"Id": "48",
			"neighborho": "יא",
			"street": "השל\"ה",
			"HouseNumbe": "16",
			"name": "חב\"ד",
			"lat": "31.257357158000048",
			"lon": "34.76933765500007"
		},
		{
			"Id": "49",
			"neighborho": "יא",
			"street": "עוזיאל",
			"HouseNumbe": "26",
			"name": "בית אהרון",
			"lat": "31.25529650200008",
			"lon": "34.77034038200003"
		},
		{
			"Id": "50",
			"neighborho": "ו",
			"street": "בוגלה",
			"HouseNumbe": "10",
			"name": "בוגלה",
			"lat": "31.261617255000033",
			"lon": "34.77271516300004"
		},
		{
			"Id": "51",
			"neighborho": "ו",
			"street": "מבצע עובד",
			"HouseNumbe": "53",
			"name": "ראו בנים",
			"lat": "31.261678475000053",
			"lon": "34.77361998400005"
		},
		{
			"Id": "52",
			"neighborho": "ו",
			"street": "מבצע נחשון",
			"HouseNumbe": "46",
			"name": "לב מלכים",
			"lat": "31.26003373900005",
			"lon": "34.78678172800005"
		},
		{
			"Id": "53",
			"neighborho": "יא",
			"street": "יערי",
			"HouseNumbe": "52",
			"name": "תהילה לדוד",
			"lat": "31.257798361000027",
			"lon": "34.76431693400008"
		},
		{
			"Id": "54",
			"neighborho": "יא",
			"street": "מויאל",
			"HouseNumbe": "4",
			"name": "בארות יצחק",
			"lat": "31.26296448100004",
			"lon": "34.76960960500003"
		},
		{
			"Id": "55",
			"neighborho": "יא",
			"street": "ציזלינג",
			"HouseNumbe": "1",
			"name": "מרדכי היהודי",
			"lat": "31.25908225300003",
			"lon": "34.76431155600005"
		},
		{
			"Id": "56",
			"neighborho": "יא",
			"street": "חזני",
			"HouseNumbe": "2",
			"name": "בית מרדכי",
			"lat": "31.26034665700007",
			"lon": "34.77095257000008"
		},
		{
			"Id": "57",
			"neighborho": "יא",
			"street": "הרצוג",
			"HouseNumbe": "38",
			"name": "אורח חיים",
			"lat": "31.26045668300003",
			"lon": "34.767285799000035"
		},
		{
			"Id": "58",
			"neighborho": "יא",
			"street": "נמיר",
			"HouseNumbe": "3",
			"name": "יהודי אתיופיה",
			"lat": "31.259111868000048",
			"lon": "34.767561165000075"
		},
		{
			"Id": "59",
			"neighborho": "יא",
			"street": "רוקח",
			"HouseNumbe": "30",
			"name": "שבטי ישראל",
			"lat": "31.26261891200005",
			"lon": "34.767822856000066"
		},
		{
			"Id": "60",
			"neighborho": "יא",
			"street": "שיטרית",
			"HouseNumbe": "63",
			"name": "כסא מצליח",
			"lat": "31.25524645200005",
			"lon": "34.76166184400006"
		},
		{
			"Id": "61",
			"neighborho": "יא",
			"street": "פנקס",
			"HouseNumbe": "3",
			"name": "שבטי ישראל",
			"lat": "31.254602093000074",
			"lon": "34.76489563500007"
		},
		{
			"Id": "62",
			"neighborho": "נווה זאב",
			"street": "בז",
			"HouseNumbe": "26",
			"name": "מקדש מלך ובית מדרש",
			"lat": "31.230550806000053",
			"lon": "34.77148875800003"
		},
		{
			"Id": "63",
			"neighborho": "ד",
			"street": "המכתשים",
			"HouseNumbe": "40",
			"name": "תפארת ישראל",
			"lat": "31.269535381000026",
			"lon": "34.795585896000034"
		},
		{
			"Id": "64",
			"neighborho": "ג",
			"street": "ניל\"י",
			"HouseNumbe": "3",
			"name": "ניל\"י",
			"lat": "31.259199883000065",
			"lon": "34.80987224200004"
		},
		{
			"Id": "65",
			"neighborho": "ג",
			"street": "רזיאל",
			"HouseNumbe": "4",
			"name": "אור שלום",
			"lat": "31.257839243000035",
			"lon": "34.810570072000075"
		},
		{
			"Id": "66",
			"neighborho": "ג",
			"street": "חנה סנש",
			"HouseNumbe": "12",
			"name": "זכור לאברהם",
			"lat": "31.257158452000056",
			"lon": "34.81035472100007"
		},
		{
			"Id": "67",
			"neighborho": "ד",
			"street": "בן מתתיהו",
			"HouseNumbe": "2",
			"name": "בית אליהו",
			"lat": "31.26664457100003",
			"lon": "34.80121380400004"
		},
		{
			"Id": "68",
			"neighborho": "ד",
			"street": "שמחה אסף",
			"HouseNumbe": "33",
			"name": "אביר יעקב",
			"lat": "31.265858554000033",
			"lon": "34.80299599700004"
		},
		{
			"Id": "69",
			"neighborho": "ד",
			"street": "רוסי",
			"HouseNumbe": "5",
			"name": "מקלט רוסי",
			"lat": "31.264681025000073",
			"lon": "34.79511480900004"
		},
		{
			"Id": "70",
			"neighborho": "ד",
			"street": "הורקנוס",
			"HouseNumbe": "16",
			"name": "הורקנוס",
			"lat": "31.264730374000067",
			"lon": "34.79531611500005"
		},
		{
			"Id": "71",
			"neighborho": "ד",
			"street": "רוסי",
			"HouseNumbe": "2",
			"name": "הישועה",
			"lat": "31.264236098000026",
			"lon": "34.795640012000035"
		},
		{
			"Id": "72",
			"neighborho": "ד",
			"street": "אלכסנדר ינאי",
			"HouseNumbe": "16",
			"name": "אלכסנדר ינאי ב",
			"lat": "31.263861876000078",
			"lon": "34.79631312400005"
		},
		{
			"Id": "73",
			"neighborho": "ב",
			"street": "מצדה",
			"HouseNumbe": "95",
			"name": "כנסת ישראל",
			"lat": "31.25785037000003",
			"lon": "34.78061567200007"
		},
		{
			"Id": "74",
			"neighborho": "ד",
			"street": "אלכסנדר ינאי",
			"HouseNumbe": "22",
			"name": "אלכסנדר ינאי",
			"lat": "31.26391697100007",
			"lon": "34.794832034000024"
		},
		{
			"Id": "75",
			"neighborho": "ד",
			"street": "אברהם אבינו",
			"HouseNumbe": "4",
			"name": "קדושי אושויץ",
			"lat": "31.262922455000023",
			"lon": "34.79448900500006"
		},
		{
			"Id": "76",
			"neighborho": "ד",
			"street": "יעקב אבינו",
			"HouseNumbe": "14",
			"name": "אהבת תורה",
			"lat": "31.262191355000027",
			"lon": "34.795096417000025"
		},
		{
			"Id": "77",
			"neighborho": "ד",
			"street": "שלמה המלך",
			"HouseNumbe": "10",
			"name": "מקלט שלמה המלך",
			"lat": "31.260487156000067",
			"lon": "34.79658721900006"
		},
		{
			"Id": "78",
			"neighborho": "ד",
			"street": "הקניזי",
			"HouseNumbe": "11",
			"name": "אהבה ואחווה",
			"lat": "31.261209302000054",
			"lon": "34.795719080000026"
		},
		{
			"Id": "79",
			"neighborho": "ד",
			"street": "יצחק אבינו",
			"HouseNumbe": "5",
			"name": "מקלט אברהם אבינו",
			"lat": "31.261171406000074",
			"lon": "34.79533861500005"
		},
		{
			"Id": "80",
			"neighborho": "ו",
			"street": "שטיין",
			"HouseNumbe": "24",
			"name": "מקלט שטיין",
			"lat": "31.26584829600006",
			"lon": "34.77013884400003"
		},
		{
			"Id": "81",
			"neighborho": "נווה מנחם",
			"street": "אבידוב",
			"HouseNumbe": "9",
			"name": "חסדי דוד ומשה",
			"lat": "31.26987534700004",
			"lon": "34.77095771900008"
		},
		{
			"Id": "82",
			"neighborho": "ט",
			"street": "ירושלים",
			"HouseNumbe": "38",
			"name": "מולדת",
			"lat": "31.246653914000035",
			"lon": "34.77722199800007"
		},
		{
			"Id": "83",
			"neighborho": "ט",
			"street": "ירושלים",
			"HouseNumbe": "72",
			"name": "אשל אברהם",
			"lat": "31.24783514300003",
			"lon": "34.771590754000044"
		},
		{
			"Id": "84",
			"neighborho": "ב",
			"street": "בני אור",
			"HouseNumbe": "43",
			"name": "בית בנימין",
			"lat": "31.25745674600006",
			"lon": "34.78159749900004"
		},
		{
			"Id": "85",
			"neighborho": "ט",
			"street": "ירושלים",
			"HouseNumbe": "68",
			"name": "עוז ותעצומת",
			"lat": "31.246870955000077",
			"lon": "34.77302957200004"
		},
		{
			"Id": "86",
			"neighborho": "נווה זאב",
			"street": "גרוסמן",
			"HouseNumbe": "22",
			"name": "גרוסמן נווה זאב",
			"lat": "31.236985409000056",
			"lon": "34.768204414000024"
		},
		{
			"Id": "87",
			"neighborho": "ו",
			"street": "יהואש",
			"HouseNumbe": "28",
			"name": "נתיבות השלום",
			"lat": "31.262555058000032",
			"lon": "34.78400135800007"
		},
		{
			"Id": "88",
			"neighborho": "ו",
			"street": "אבנר",
			"HouseNumbe": "6",
			"name": "שלום הגליל",
			"lat": "31.260424236000063",
			"lon": "34.777792813000076"
		},
		{
			"Id": "89",
			"neighborho": "ו",
			"street": "אבנר",
			"HouseNumbe": "6",
			"name": "עולי גרוזיה",
			"lat": "31.26044379500007",
			"lon": "34.77757101800006"
		},
		{
			"Id": "90",
			"neighborho": "ו",
			"street": "אג\"ן",
			"HouseNumbe": "4",
			"name": "אג\"ן",
			"lat": "31.268237777000024",
			"lon": "34.77780881800004"
		},
		{
			"Id": "91",
			"neighborho": "ו",
			"street": "ח\"ן",
			"HouseNumbe": "2",
			"name": "שערי ניסים",
			"lat": "31.266719393000074",
			"lon": "34.776779102000035"
		},
		{
			"Id": "92",
			"neighborho": "ו",
			"street": "ח\"ן",
			"HouseNumbe": "2",
			"name": "אוהל מועד",
			"lat": "31.266362340000057",
			"lon": "34.77671135200006"
		},
		{
			"Id": "93",
			"neighborho": "ו",
			"street": "דורי",
			"HouseNumbe": "29",
			"name": "בית אליהו",
			"lat": "31.26571069000005",
			"lon": "34.77999766500005"
		},
		{
			"Id": "94",
			"neighborho": "ו",
			"street": "מבצע ברוש",
			"HouseNumbe": "4",
			"name": "תפארת ישראל",
			"lat": "31.26640599500007",
			"lon": "34.78377419200007"
		},
		{
			"Id": "95",
			"neighborho": "ד",
			"street": "סוכות",
			"HouseNumbe": "8",
			"name": "אור מאיר",
			"lat": "31.26869472800007",
			"lon": "34.79659649400003"
		},
		{
			"Id": "96",
			"neighborho": "ו",
			"street": "מקלף",
			"HouseNumbe": "7",
			"name": "מגרשים",
			"lat": "31.266234342000075",
			"lon": "34.78406695500007"
		},
		{
			"Id": "97",
			"neighborho": "ו",
			"street": "טולדנו",
			"HouseNumbe": "3",
			"name": "בית יוסף",
			"lat": "31.26762649300008",
			"lon": "34.778885778000074"
		},
		{
			"Id": "98",
			"neighborho": "ו",
			"street": "הרב פרנק",
			"HouseNumbe": "9",
			"name": "תפילת אבות",
			"lat": "31.26749265600006",
			"lon": "34.781461483000044"
		},
		{
			"Id": "99",
			"neighborho": "ט",
			"street": "ירושלים",
			"HouseNumbe": "37",
			"name": "אריאל",
			"lat": "31.24476921400003",
			"lon": "34.776429750000034"
		},
		{
			"Id": "100",
			"neighborho": "נווה זאב",
			"street": "ניב",
			"HouseNumbe": "2",
			"name": "מנחת יהודה",
			"lat": "31.23716148500006",
			"lon": "34.77033000100005"
		},
		{
			"Id": "101",
			"neighborho": "נווה זאב",
			"street": "קיפניס",
			"HouseNumbe": "1",
			"name": "בני שלמה",
			"lat": "31.238319095000065",
			"lon": "34.779977565000024"
		},
		{
			"Id": "102",
			"neighborho": "נווה זאב",
			"street": "אשבל",
			"HouseNumbe": "17",
			"name": "מנחם ציון-ניצן חלק",
			"lat": "31.241990216000033",
			"lon": "34.77541832700007"
		},
		{
			"Id": "103",
			"neighborho": "נווה זאב",
			"street": "אביגדור ה",
			"HouseNumbe": "10",
			"name": "חסיתי בך נווה זאב",
			"lat": "31.239415205000057",
			"lon": "34.776096675000076"
		},
		{
			"Id": "104",
			"neighborho": "נווה נוי",
			"street": "שיזף",
			"HouseNumbe": "2",
			"name": "בית אברהם",
			"lat": "31.232315777000053",
			"lon": "34.793371860000036"
		},
		{
			"Id": "105",
			"neighborho": "נווה נוי",
			"street": "שיזף",
			"HouseNumbe": "1",
			"name": "מועצה דתית",
			"lat": "31.231989975000033",
			"lon": "34.793406739000034"
		},
		{
			"Id": "106",
			"neighborho": "ד",
			"street": "אברהם אבי",
			"HouseNumbe": "48",
			"name": "שערי רחמים",
			"lat": "31.26851410000006",
			"lon": "34.79367373400004"
		},
		{
			"Id": "107",
			"neighborho": "נווה נוי",
			"street": "יסמין",
			"HouseNumbe": "11",
			"name": "לעולי איראן",
			"lat": "31.231427454000027",
			"lon": "34.79359582400008"
		},
		{
			"Id": "108",
			"neighborho": "ט",
			"street": "ירושלים",
			"HouseNumbe": "2",
			"name": "נאות ספיר",
			"lat": "31.245585798000036",
			"lon": "34.78232622000007"
		},
		{
			"Id": "109",
			"neighborho": "ה",
			"street": "סטרומה",
			"HouseNumbe": "41",
			"name": "מקווה טהרה",
			"lat": "31.25568800800005",
			"lon": "34.77755387900004"
		},
		{
			"Id": "110",
			"neighborho": "ה",
			"street": "העליה",
			"HouseNumbe": "47",
			"name": "תורה וחיים",
			"lat": "31.255272354000056",
			"lon": "34.77936286400006"
		},
		{
			"Id": "111",
			"neighborho": "ה",
			"street": "סטרומה",
			"HouseNumbe": "23",
			"name": "מגן חסידים",
			"lat": "31.253803464000043",
			"lon": "34.77820958700005"
		},
		{
			"Id": "112",
			"neighborho": "ה",
			"street": "העליה",
			"HouseNumbe": "22",
			"name": "חיים ושלום",
			"lat": "31.253698237000037",
			"lon": "34.782282027000065"
		},
		{
			"Id": "113",
			"neighborho": "ה",
			"street": "קפריסין",
			"HouseNumbe": "3",
			"name": "יגל יעקב",
			"lat": "31.253529032000074",
			"lon": "34.78133556600005"
		},
		{
			"Id": "114",
			"neighborho": "א",
			"street": "תל חי",
			"HouseNumbe": "16",
			"name": "שושן",
			"lat": "31.251679326000044",
			"lon": "34.78907312100006"
		},
		{
			"Id": "115",
			"neighborho": "א",
			"street": "בזל",
			"HouseNumbe": "51",
			"name": "בית אברהם",
			"lat": "31.250993940000058",
			"lon": "34.78846406300005"
		},
		{
			"Id": "116",
			"neighborho": "ה",
			"street": "שאר ישוב א",
			"HouseNumbe": "4",
			"name": "שאר ישוב",
			"lat": "31.252571127000067",
			"lon": "34.78180328600007"
		},
		{
			"Id": "117",
			"neighborho": "נחל בקע",
			"street": "חזמה",
			"HouseNumbe": "13",
			"name": "מקלט נחל בקע",
			"lat": "31.221499531000063",
			"lon": "34.77553846600006"
		},
		{
			"Id": "118",
			"neighborho": "ד",
			"street": "כיכר רחבי",
			"HouseNumbe": "2",
			"name": "מרדכי הצדיק",
			"lat": "31.268619905000037",
			"lon": "34.796826182000075"
		},
		{
			"Id": "119",
			"neighborho": "ה",
			"street": "שאר ישוב ב",
			"HouseNumbe": "5",
			"name": "",
			"OtherName": "",
			"lat": "31.252527677000046",
			"lon": "34.78215010500003"
		},
		{
			"Id": "120",
			"neighborho": "ב",
			"street": "בני אור",
			"HouseNumbe": "19",
			"name": "קדושי ישראל",
			"lat": "31.258121009000035",
			"lon": "34.78555563500004"
		},
		{
			"Id": "121",
			"neighborho": "ב",
			"street": "בני אור",
			"HouseNumbe": "1",
			"name": "יסודות",
			"lat": "31.258069600000056",
			"lon": "34.788249618000066"
		},
		{
			"Id": "122",
			"neighborho": "א",
			"street": "הכותל המע",
			"HouseNumbe": "41",
			"name": "שבטי ישראל",
			"lat": "31.247992382000064",
			"lon": "34.78489074600003"
		},
		{
			"Id": "123",
			"neighborho": "ה",
			"street": "יציאת ארו",
			"HouseNumbe": "5",
			"name": "שמעון בר יוחאי",
			"lat": "31.253507523000053",
			"lon": "34.783030620000034"
		},
		{
			"Id": "124",
			"neighborho": "נווה זאב",
			"street": "מקור חיים",
			"HouseNumbe": "3",
			"name": "מקור חיים נווה זאב",
			"lat": "31.23860337700006",
			"lon": "34.76455594500004"
		},
		{
			"Id": "125",
			"neighborho": "נווה זאב",
			"street": "סוד השבוע",
			"HouseNumbe": "2",
			"name": "חסד לאברהם",
			"lat": "31.238525613000036",
			"lon": "34.76258926700007"
		},
		{
			"Id": "126",
			"neighborho": "נחל בקע",
			"street": "צביה ויצח",
			"HouseNumbe": "45",
			"name": "מקלט צביה ויצח",
			"lat": "31.224574319000055",
			"lon": "34.780915546000074"
		},
		{
			"Id": "127",
			"neighborho": "ד",
			"street": "שיפר",
			"HouseNumbe": "14",
			"name": "בית יעקב - ד",
			"lat": "31.270920406000073",
			"lon": "34.79997849700004"
		},
		{
			"Id": "128",
			"neighborho": "נווה מנחם",
			"street": "רודנסקי",
			"HouseNumbe": "128",
			"name": "מקלט רודנסקי",
			"lat": "31.271228369000028",
			"lon": "34.76754747800004"
		},
		{
			"Id": "129",
			"neighborho": "ד",
			"street": "כיכר רחבי",
			"HouseNumbe": "2",
			"name": "עזרא הסופר",
			"lat": "31.26837912600007",
			"lon": "34.796810434000065"
		},
		{
			"Id": "130",
			"neighborho": "רמות",
			"street": "הנגבי",
			"HouseNumbe": "6",
			"name": "קול רינה וישועה",
			"lat": "31.284250600000064",
			"lon": "34.804798220000066"
		},
		{
			"Id": "131",
			"neighborho": "ב",
			"street": "אבן גבירו",
			"HouseNumbe": "11",
			"name": "סיני",
			"lat": "31.25753178100007",
			"lon": "34.795901128000025"
		},
		{
			"Id": "132",
			"neighborho": "ב",
			"street": "אסף הרופא",
			"HouseNumbe": "9",
			"name": "בית אל",
			"lat": "31.256184810000036",
			"lon": "34.79348623200008"
		},
		{
			"Id": "133",
			"neighborho": "ב",
			"street": "רמח\"ל",
			"HouseNumbe": "8",
			"name": "מקלט רמת החייל",
			"lat": "31.25648755800006",
			"lon": "34.79139583800003"
		},
		{
			"Id": "134",
			"neighborho": "ב",
			"street": "דובנוב",
			"HouseNumbe": "9",
			"name": "מקלט דובנוב",
			"lat": "31.256567933000042",
			"lon": "34.793907173000036"
		},
		{
			"Id": "135",
			"neighborho": "ב",
			"street": "טשרנחובסקי",
			"HouseNumbe": "7",
			"name": "ישראל הצעיר",
			"lat": "31.256621891000066",
			"lon": "34.79461661500005"
		},
		{
			"Id": "136",
			"neighborho": "ב",
			"street": "גרץ",
			"HouseNumbe": "7",
			"name": "בית יצחק",
			"lat": "31.257137357000033",
			"lon": "34.79493142700005"
		},
		{
			"Id": "137",
			"neighborho": "ד",
			"street": "מרכז קליט",
			"HouseNumbe": "0",
			"name": "מרכז קליט ג",
			"lat": "31.272770731000037",
			"lon": "34.786061999000026"
		},
		{
			"Id": "138",
			"neighborho": "ד",
			"street": "מרכז קליט",
			"HouseNumbe": "0",
			"name": "מרכז קליט ב",
			"lat": "31.273178878000067",
			"lon": "34.78627153900004"
		},
		{
			"Id": "139",
			"neighborho": "ד",
			"street": "המכתשים",
			"HouseNumbe": "1",
			"name": "אור אבנר",
			"lat": "31.268295386000034",
			"lon": "34.79469062700008"
		},
		{
			"Id": "140",
			"neighborho": "ד",
			"street": "מרכז קליט",
			"HouseNumbe": "0",
			"name": "מרכז קליט א",
			"lat": "31.272761654000078",
			"lon": "34.785878351000065"
		},
		{
			"Id": "141",
			"neighborho": "ו",
			"street": "דורי",
			"HouseNumbe": "2",
			"name": "בית יונה",
			"lat": "31.26815626900003",
			"lon": "34.78426905500004"
		},
		{
			"Id": "142",
			"neighborho": "ג",
			"street": "וינגייט",
			"HouseNumbe": "65",
			"name": "מקיף ב",
			"lat": "31.255030486000067",
			"lon": "34.80083364200004"
		},
		{
			"Id": "143",
			"neighborho": "א",
			"street": "בזל",
			"HouseNumbe": "28",
			"name": "בזל",
			"lat": "31.249363784000025",
			"lon": "34.78735539500008"
		},
		{
			"Id": "144",
			"neighborho": "א",
			"street": "הכותל המערבי",
			"HouseNumbe": "10",
			"name": "שערי בנימין",
			"lat": "31.24784231800004",
			"lon": "34.78758474500006"
		},
		{
			"Id": "145",
			"neighborho": "א",
			"street": "ורבורג",
			"HouseNumbe": "7",
			"name": "ישורון",
			"lat": "31.249929700000052",
			"lon": "34.785540051000055"
		},
		{
			"Id": "146",
			"neighborho": "א",
			"street": "ורבורג",
			"HouseNumbe": "7",
			"name": "תפארת משה",
			"lat": "31.24955237000006",
			"lon": "34.78540530200007"
		},
		{
			"Id": "147",
			"neighborho": "א",
			"street": "תל חי",
			"HouseNumbe": "6",
			"name": "מאה ואחד",
			"lat": "31.251605776000076",
			"lon": "34.790448050000066"
		},
		{
			"Id": "148",
			"neighborho": "עיר עתיקה",
			"street": "יאיר",
			"HouseNumbe": "10",
			"name": "בית יוסף",
			"lat": "31.24016589000007",
			"lon": "34.79283742100006"
		},
		{
			"Id": "149",
			"neighborho": "ד",
			"street": "פארן",
			"HouseNumbe": "7",
			"name": "הרב דוד כהן",
			"lat": "31.267515814000035",
			"lon": "34.79419091300008"
		},
		{
			"Id": "150",
			"neighborho": "עיר עתיקה",
			"street": "גרשון",
			"HouseNumbe": "37",
			"name": "גרשון ב\\'",
			"lat": "31.242034482000065",
			"lon": "34.79082062400005"
		},
		{
			"Id": "151",
			"neighborho": "עיר עתיקה",
			"street": "האבות",
			"HouseNumbe": "59",
			"name": "מעיין",
			"lat": "31.23980636400006",
			"lon": "34.786198934000026"
		},
		{
			"Id": "152",
			"neighborho": "עיר עתיקה",
			"street": "האבות",
			"HouseNumbe": "78",
			"name": "האבות ג\\'",
			"lat": "31.24089969100004",
			"lon": "34.785619799000074"
		},
		{
			"Id": "153",
			"neighborho": "עיר עתיקה",
			"street": "האבות",
			"HouseNumbe": "80",
			"name": "האבות ב\\'",
			"lat": "31.240863647000026",
			"lon": "34.78541060300006"
		},
		{
			"Id": "154",
			"neighborho": "עיר עתיקה",
			"street": "ההסתדרות",
			"HouseNumbe": "37",
			"name": "הפועל המזרחי",
			"lat": "31.239725501000066",
			"lon": "34.78884330900007"
		},
		{
			"Id": "155",
			"neighborho": "עיר עתיקה",
			"street": "החלוץ",
			"HouseNumbe": "130",
			"name": "לגריבה",
			"lat": "31.242112818000066",
			"lon": "34.79257142000006"
		},
		{
			"Id": "156",
			"neighborho": "עיר עתיקה",
			"street": "החלוץ",
			"HouseNumbe": "8",
			"name": "החלוץ",
			"lat": "31.236375374000033",
			"lon": "34.78706874300008"
		},
		{
			"Id": "157",
			"neighborho": "עיר עתיקה",
			"street": "גרשון",
			"HouseNumbe": "43",
			"name": "גרשון",
			"lat": "31.24230739500007",
			"lon": "34.790143140000055"
		},
		{
			"Id": "158",
			"neighborho": "עיר עתיקה",
			"street": "האבות",
			"HouseNumbe": "69",
			"name": "האבות",
			"lat": "31.240521301000058",
			"lon": "34.785467410000024"
		},
		{
			"Id": "159",
			"neighborho": "ד",
			"street": "פארן",
			"HouseNumbe": "10",
			"name": "מגן דוד",
			"lat": "31.267267135000054",
			"lon": "34.794393608000064"
		},
		{
			"Id": "160",
			"neighborho": "עיר עתיקה",
			"street": "האבות",
			"HouseNumbe": "67",
			"name": "אורח חיים",
			"lat": "31.240340686000025",
			"lon": "34.78571272700003"
		},
		{
			"Id": "161",
			"neighborho": "עיר עתיקה",
			"street": "הדסה",
			"HouseNumbe": "37",
			"name": "סוכת שלום",
			"lat": "31.240071534000037",
			"lon": "34.79119493500008"
		},
		{
			"Id": "162",
			"neighborho": "עיר עתיקה",
			"street": "נגבה",
			"HouseNumbe": "23",
			"name": "נגבה",
			"lat": "31.23972270200005",
			"lon": "34.785345946000064"
		},
		{
			"Id": "163",
			"neighborho": "עיר עתיקה",
			"street": "סמילנסקי",
			"HouseNumbe": "27",
			"name": "עולי תורכיה",
			"lat": "31.237330752000048",
			"lon": "34.78744674200004"
		},
		{
			"Id": "164",
			"neighborho": "עיר עתיקה",
			"street": "לוי",
			"HouseNumbe": "1",
			"name": "לוי",
			"lat": "31.237029931000052",
			"lon": "34.781535235000035"
		},
		{
			"Id": "165",
			"neighborho": "עיר עתיקה",
			"street": "ההגנה",
			"HouseNumbe": "10",
			"name": "חברון",
			"lat": "31.23718440300007",
			"lon": "34.78457889400005"
		},
		{
			"Id": "166",
			"neighborho": "עיר עתיקה",
			"street": "רמב\"ם",
			"HouseNumbe": "15",
			"name": "בית אפרים",
			"lat": "31.241776727000058",
			"lon": "34.79251151900007"
		},
		{
			"Id": "167",
			"neighborho": "נווה נוי",
			"street": "אטד",
			"HouseNumbe": "56",
			"name": "שבת אחים- נווה נוי",
			"lat": "31.22986783700003",
			"lon": "34.785869124000044"
		},
		{
			"Id": "168",
			"neighborho": "נווה זאב",
			"street": "התורה הגו",
			"HouseNumbe": "3",
			"name": "נאות אברהם",
			"lat": "31.23540699700004",
			"lon": "34.76310479700004"
		},
		{
			"Id": "169",
			"neighborho": "רמות",
			"street": "זמיר",
			"HouseNumbe": "74",
			"name": "רמות בנימין י",
			"lat": "31.272768339000038",
			"lon": "34.81634550900003"
		},
		{
			"Id": "170",
			"neighborho": "ד",
			"street": "יוטבתה",
			"HouseNumbe": "3",
			"name": "יוטבתה",
			"lat": "31.267189745000053",
			"lon": "34.79557936700007"
		},
		{
			"Id": "171",
			"neighborho": "רמות",
			"street": "המרד",
			"HouseNumbe": "77",
			"name": "ברית שלום",
			"lat": "31.274771513000076",
			"lon": "34.815987145000065"
		},
		{
			"Id": "172",
			"neighborho": "רמות",
			"street": "אמיר",
			"HouseNumbe": "30",
			"name": "אור יהל",
			"lat": "31.275733889000037",
			"lon": "34.82417312000007"
		},
		{
			"Id": "173",
			"neighborho": "רמות",
			"street": "נטר",
			"HouseNumbe": "4",
			"name": "חיבת רחל",
			"lat": "31.272832427000026",
			"lon": "34.82534489400007"
		},
		{
			"Id": "174",
			"neighborho": "רמות",
			"street": "מרש",
			"HouseNumbe": "18",
			"name": "רמות שלום",
			"lat": "31.267364158000078",
			"lon": "34.81029864900006"
		},
		{
			"Id": "175",
			"neighborho": "רמות",
			"street": "שושנה",
			"HouseNumbe": "1",
			"name": "אח ורע",
			"lat": "31.28364569100006",
			"lon": "34.797234925000055"
		},
		{
			"Id": "176",
			"neighborho": "נווה נוי",
			"street": "אפרסמון",
			"HouseNumbe": "11",
			"name": "מרדכי היהודי-נוה נוי",
			"lat": "31.230883284000072",
			"lon": "34.78503518500003"
		},
		{
			"Id": "177",
			"neighborho": "א",
			"street": "קפלן",
			"HouseNumbe": "6",
			"name": "סטרומה",
			"lat": "31.248931337000045",
			"lon": "34.79156866500006"
		},
		{
			"Id": "178",
			"neighborho": "עמק שרה",
			"street": "ירדן",
			"HouseNumbe": "37",
			"name": "חוצות להב",
			"lat": "31.225017321000053",
			"lon": "34.82047326400004"
		},
		{
			"Id": "179",
			"neighborho": "רמות הרכס",
			"street": "נתן רוטנש",
			"HouseNumbe": "3",
			"name": "יגדיל תורה הקצאה",
			"lat": "31.280427512000074",
			"lon": "34.79721042800003"
		},
		{
			"Id": "180",
			"neighborho": "ד",
			"street": "אברהם אבינו",
			"HouseNumbe": "40",
			"name": "אברהם אבינו",
			"lat": "31.26716506400004",
			"lon": "34.79381614000005"
		},
		{
			"Id": "181",
			"neighborho": "ד",
			"street": "פארן",
			"HouseNumbe": "10",
			"name": "אהבת ישראל",
			"lat": "31.26699559700006",
			"lon": "34.79426890800005"
		},
		{
			"Id": "182",
			"neighborho": "ד",
			"street": "הנבטים",
			"HouseNumbe": "8",
			"name": "הדיגת",
			"lat": "31.26642819400007",
			"lon": "34.79666079800006"
		},
		{
			"Id": "183",
			"neighborho": "ד",
			"street": "הורקנוס",
			"HouseNumbe": "39",
			"name": "בית יוסף",
			"lat": "31.266387414000064",
			"lon": "34.795212596000056"
		},
		{
			"Id": "184",
			"neighborho": "מחנה נתן",
			"street": "",
			"HouseNumbe": "0",
			"name": "מחנה נתן",
			"lat": "31.224969099000077",
			"lon": "34.79747904100003"
		},
		{
			"Id": "185",
			"neighborho": "ד",
			"street": "הנבטים",
			"HouseNumbe": "2",
			"name": "מנחת יעקב",
			"lat": "31.265344034000066",
			"lon": "34.79617389500004"
		},
		{
			"Id": "186",
			"neighborho": "ד",
			"street": "אברהם אבינו",
			"HouseNumbe": "28",
			"name": "אברהם אבינו",
			"lat": "31.26539887100006",
			"lon": "34.79396551800005"
		},
		{
			"Id": "187",
			"neighborho": "ד",
			"street": "הורקנוס",
			"HouseNumbe": "17",
			"name": "ברכת כוהנים",
			"lat": "31.265384760000074",
			"lon": "34.794505971000035"
		},
		{
			"Id": "188",
			"neighborho": "ד",
			"street": "הורקנוס",
			"HouseNumbe": "21",
			"name": "רבי חי טייב",
			"lat": "31.26539124900006",
			"lon": "34.794622111000024"
		},
		{
			"Id": "189",
			"neighborho": "ו",
			"street": "מבצע עובד",
			"HouseNumbe": "45",
			"name": "אוהל יעקב",
			"lat": "31.260424312000055",
			"lon": "34.77454825600006"
		},
		{
			"Id": "190",
			"neighborho": "ו",
			"street": "מבצע עובד",
			"HouseNumbe": "31",
			"name": "עולי גרוזיה",
			"lat": "31.25967834900007",
			"lon": "34.77689348800004"
		},
		{
			"Id": "191",
			"neighborho": "ו",
			"street": "מבצע עובד",
			"HouseNumbe": "25",
			"name": "המרכזי מצדה",
			"lat": "31.259367464000036",
			"lon": "34.77672969900004"
		},
		{
			"Id": "192",
			"neighborho": "ד",
			"street": "רינגנבלום",
			"HouseNumbe": "53",
			"name": "מחזיקי הדת",
			"lat": "31.26889318800005",
			"lon": "34.79861814100008"
		},
		{
			"Id": "193",
			"neighborho": "ד",
			"street": "רגר",
			"HouseNumbe": "140",
			"name": "היכלי שלמה",
			"lat": "31.268166559000065",
			"lon": "34.79879646200004"
		},
		{
			"Id": "194",
			"neighborho": "ה",
			"street": "חרדון",
			"HouseNumbe": "19",
			"name": "הכיפה",
			"lat": "31.249673107000035",
			"lon": "34.77812480100005"
		},
		{
			"Id": "195",
			"neighborho": "רמות",
			"street": "הר רמון",
			"HouseNumbe": "74",
			"name": "רמות אור",
			"lat": "31.27723492000007",
			"lon": "34.80748855500008"
		},
		{
			"Id": "196",
			"neighborho": "נווה מנחם",
			"street": "אסתר המלכה",
			"HouseNumbe": "1",
			"name": "מקלט אסתר",
			"lat": "31.26816997800006",
			"lon": "34.76446333700005"
		},
		{
			"Id": "197",
			"neighborho": "נווה מנחם",
			"street": "נעמי",
			"HouseNumbe": "2",
			"name": "רינת רחל",
			"lat": "31.26937708400004",
			"lon": "34.76487284600006"
		},
		{
			"Id": "198",
			"neighborho": "ד",
			"street": "סנהדרין",
			"HouseNumbe": "80",
			"name": "שערי שלום בית יצחק",
			"lat": "31.271053567000024",
			"lon": "34.790812548000076"
		},
		{
			"Id": "199",
			"neighborho": "ד",
			"street": "שפרינצק",
			"HouseNumbe": "13",
			"name": "זכור לאברהם - ד",
			"lat": "31.270767584000055",
			"lon": "34.79276876700004"
		},
		{
			"Id": "200",
			"neighborho": "ד",
			"street": "הקנאים",
			"HouseNumbe": "32",
			"name": "מקלט הקנאים",
			"lat": "31.269205939000074",
			"lon": "34.79294107000004"
		},
		{
			"Id": "201",
			"neighborho": "ד",
			"street": "רש\"י",
			"HouseNumbe": "118",
			"name": "עוסקי תורה",
			"lat": "31.26868667100007",
			"lon": "34.78927267800003"
		},
		{
			"Id": "202",
			"neighborho": "ד",
			"street": "רש\"י",
			"HouseNumbe": "11",
			"name": "אהבת שלום",
			"lat": "31.268666991000032",
			"lon": "34.78890570600004"
		},
		{
			"Id": "203",
			"neighborho": "ד",
			"street": "האיסיים",
			"HouseNumbe": "20",
			"name": "מלאך רפאל",
			"lat": "31.26772292700008",
			"lon": "34.79189424600003"
		},
		{
			"Id": "204",
			"neighborho": "יא",
			"street": "החיד\"א",
			"HouseNumbe": "55",
			"name": "שבת אחים",
			"lat": "31.25369616200004",
			"lon": "34.768525761000035"
		},
		{
			"Id": "205",
			"neighborho": "ה",
			"street": "טבנקין",
			"HouseNumbe": "13",
			"name": "מעיין",
			"lat": "31.254378792000068",
			"lon": "34.77422156700004"
		},
		{
			"Id": "206",
			"neighborho": "נווה מנחם",
			"street": "לישנסקי",
			"HouseNumbe": "11",
			"name": "יקירי ב\"ש",
			"lat": "31.266750345000048",
			"lon": "34.75899217600005"
		},
		{
			"Id": "207",
			"neighborho": "ה",
			"street": "הגלבוע",
			"HouseNumbe": "1",
			"name": "גלבוע",
			"lat": "31.252207300000066",
			"lon": "34.77328671500004"
		},
		{
			"Id": "208",
			"neighborho": "ט",
			"street": "אגרנט",
			"HouseNumbe": "2",
			"name": "שערי ניסים",
			"lat": "31.247058279000044",
			"lon": "34.762110610000036"
		},
		{
			"Id": "209",
			"neighborho": "נווה מנחם",
			"street": "אנדה עמיר",
			"HouseNumbe": "15",
			"name": "דוד ומשה",
			"lat": "31.270800316000077",
			"lon": "34.767408612000054"
		},
		{
			"Id": "210",
			"neighborho": "ט",
			"street": "הגאונים",
			"HouseNumbe": "17",
			"name": "בית יוסף",
			"lat": "31.25244860400005",
			"lon": "34.76066556200004"
		},
		{
			"Id": "211",
			"neighborho": "ג",
			"street": "ז'בוטינסק",
			"HouseNumbe": "28",
			"name": "צעירי חזון",
			"lat": "31.249324444000024",
			"lon": "34.80960661100005"
		},
		{
			"Id": "212",
			"neighborho": "ג",
			"street": "ז'בוטינסקי",
			"HouseNumbe": "2",
			"name": "מקלט ז'בוטינסקי",
			"lat": "31.24776183000006",
			"lon": "34.80717875100004"
		},
		{
			"Id": "213",
			"neighborho": "ג",
			"street": "חיבת ציון",
			"HouseNumbe": "14",
			"name": "אהבת ישראל",
			"lat": "31.252477342000077",
			"lon": "34.810007650000045"
		},
		{
			"Id": "214",
			"neighborho": "ג",
			"street": "הנדיב",
			"HouseNumbe": "13",
			"name": "בית שמואל",
			"lat": "31.254060346000074",
			"lon": "34.811652880000054"
		},
		{
			"Id": "215",
			"neighborho": "ג",
			"street": "חיבת ציון",
			"HouseNumbe": "38",
			"name": "שבת אחים",
			"lat": "31.253123111000036",
			"lon": "34.81149852300007"
		},
		{
			"Id": "216",
			"neighborho": "ג",
			"street": "חיבת ציון",
			"HouseNumbe": "36",
			"name": "מקלט חיבת ציון",
			"lat": "31.252913957000032",
			"lon": "34.81146289000003"
		},
		{
			"Id": "217",
			"neighborho": "ד",
			"street": "סנהדרין",
			"HouseNumbe": "130",
			"name": "שערי רחמים",
			"lat": "31.27027896800007",
			"lon": "34.788482471000066"
		},
		{
			"Id": "218",
			"neighborho": "ג",
			"street": "קלישר",
			"HouseNumbe": "38",
			"name": "בית יעקב",
			"lat": "31.254624965000062",
			"lon": "34.810889917000054"
		},
		{
			"Id": "219",
			"neighborho": "ג",
			"street": "קלישר",
			"HouseNumbe": "42",
			"name": "אהל אברהם",
			"lat": "31.254367026000068",
			"lon": "34.81080874500003"
		},
		{
			"Id": "220",
			"neighborho": "נווה מנחם",
			"street": "ברוד",
			"HouseNumbe": "13",
			"name": "אהבת חנה",
			"lat": "31.265713315000028",
			"lon": "34.75778121500008"
		},
		{
			"Id": "221",
			"neighborho": "א",
			"street": "שפירא",
			"HouseNumbe": "9",
			"name": "בית חב\"ד",
			"lat": "31.24934943100004",
			"lon": "34.79465455600007"
		},
		{
			"Id": "222",
			"neighborho": "א",
			"street": "מונטיפיור",
			"HouseNumbe": "7",
			"name": "מקלט",
			"lat": "31.24889880300003",
			"lon": "34.79599897500003"
		},
		{
			"Id": "223",
			"neighborho": "א",
			"street": "שפירא",
			"HouseNumbe": "6",
			"name": "בית חב\"ד",
			"lat": "31.24870667400006",
			"lon": "34.79467806700006"
		},
		{
			"Id": "224",
			"neighborho": "א",
			"street": "מונטיפיור",
			"HouseNumbe": "5",
			"name": "הכוכב",
			"lat": "31.24875856600005",
			"lon": "34.796488225000076"
		},
		{
			"Id": "225",
			"neighborho": "א",
			"street": "שבזי",
			"HouseNumbe": "5",
			"name": "האבות",
			"lat": "31.24867392400006",
			"lon": "34.795846769000036"
		},
		{
			"Id": "226",
			"neighborho": "א",
			"street": "שבזי",
			"HouseNumbe": "7",
			"name": "תימני",
			"lat": "31.248569872000076",
			"lon": "34.79602036800003"
		},
		{
			"Id": "227",
			"neighborho": "א",
			"street": "שבזי",
			"HouseNumbe": "17",
			"name": "נתיב השבים",
			"lat": "31.248413243000073",
			"lon": "34.79709813100004"
		},
		{
			"Id": "228",
			"neighborho": "רמות",
			"street": "גבריאל",
			"HouseNumbe": "10",
			"name": "זוהר הרקיע",
			"lat": "31.275742308000076",
			"lon": "34.802712377000034"
		},
		{
			"Id": "229",
			"neighborho": "א",
			"street": "שבזי",
			"HouseNumbe": "9",
			"name": "עולי לוב",
			"lat": "31.248474174000023",
			"lon": "34.79620051400008"
		},
		{
			"Id": "230",
			"neighborho": "א",
			"street": "שבזי",
			"HouseNumbe": "11",
			"name": "שבזי",
			"lat": "31.24843482500006",
			"lon": "34.79634071000004"
		},
		{
			"Id": "231",
			"neighborho": "א",
			"street": "שבזי",
			"HouseNumbe": "13",
			"name": "עולי פרס",
			"lat": "31.248332497000035",
			"lon": "34.796508473000074"
		},
		{
			"Id": "232",
			"neighborho": "ג",
			"street": "גוש עציון",
			"HouseNumbe": "33",
			"name": "גוש עציון",
			"lat": "31.255557329000055",
			"lon": "34.80714383800006"
		},
		{
			"Id": "233",
			"neighborho": "ג",
			"street": "גוש עציון",
			"HouseNumbe": "22",
			"name": "הגשר לגם",
			"lat": "31.255569797000078",
			"lon": "34.808021250000024"
		},
		{
			"Id": "234",
			"neighborho": "ג",
			"street": "וינגייט",
			"HouseNumbe": "31",
			"name": "מגן דוד",
			"lat": "31.255243650000068",
			"lon": "34.80685136400007"
		},
		{
			"Id": "235",
			"neighborho": "ג",
			"street": "השלום",
			"HouseNumbe": "83",
			"name": "אהבת חסד",
			"lat": "31.253666207000038",
			"lon": "34.80952510100008"
		},
		{
			"Id": "236",
			"neighborho": "ג",
			"street": "גוש עציון",
			"HouseNumbe": "13",
			"name": "חזון עובדיה",
			"lat": "31.25342337400008",
			"lon": "34.80777438000007"
		},
		{
			"Id": "237",
			"neighborho": "ג",
			"street": "גוש עציון",
			"HouseNumbe": "44",
			"name": "תורת משה",
			"lat": "31.25851008500007",
			"lon": "34.80826680600006"
		},
		{
			"Id": "238",
			"neighborho": "ג",
			"street": "וינגייט",
			"HouseNumbe": "34",
			"name": "שער שמיים",
			"lat": "31.25632782100007",
			"lon": "34.806643405000045"
		},
		{
			"Id": "239",
			"neighborho": "ד",
			"street": "אבטליון",
			"HouseNumbe": "28",
			"name": "אבטליון",
			"lat": "31.272172345000058",
			"lon": "34.79580977100005"
		},
		{
			"Id": "240",
			"neighborho": "ג",
			"street": "השלום",
			"HouseNumbe": "20",
			"name": "השלום",
			"lat": "31.252160158000038",
			"lon": "34.80267542400003"
		},
		{
			"Id": "241",
			"neighborho": "ג",
			"street": "הלפרין",
			"HouseNumbe": "4",
			"name": "בית אל",
			"lat": "31.25152246500005",
			"lon": "34.80410150300003"
		},
		{
			"Id": "242",
			"neighborho": "ג",
			"street": "הכ\"ג",
			"HouseNumbe": "18",
			"name": "מקלט הכ\"ג",
			"lat": "31.25019478300004",
			"lon": "34.80513943600005"
		},
		{
			"Id": "243",
			"neighborho": "ג",
			"street": "בסקין",
			"HouseNumbe": "8",
			"name": "בסקין",
			"lat": "31.250587332000066",
			"lon": "34.80480116500007"
		},
		{
			"Id": "244",
			"neighborho": "ג",
			"street": "הכ\"ג",
			"HouseNumbe": "4",
			"name": "בית אל",
			"lat": "31.25044633400006",
			"lon": "34.80329037700005"
		},
		{
			"Id": "245",
			"neighborho": "ג",
			"street": "יד ושם",
			"HouseNumbe": "29",
			"name": "רבי יהושע",
			"lat": "31.249679109000056",
			"lon": "34.80244954700004"
		},
		{
			"Id": "246",
			"neighborho": "ג",
			"street": "וינגייט",
			"HouseNumbe": "41",
			"name": "לזכר חללי צהל",
			"lat": "31.25454793700004",
			"lon": "34.804145653000035"
		},
		{
			"Id": "247",
			"neighborho": "ג",
			"street": "גולומב",
			"HouseNumbe": "20",
			"name": "בית חי",
			"lat": "31.25445540100003",
			"lon": "34.802764566000064"
		},
		{
			"Id": "248",
			"neighborho": "ג",
			"street": "חומה ומגד",
			"HouseNumbe": "13",
			"name": "עץ חיים",
			"lat": "31.25423915600004",
			"lon": "34.80372869000007"
		},
		{
			"Id": "249",
			"neighborho": "ג",
			"street": "ארלוזורוב",
			"HouseNumbe": "3",
			"name": "ויקהל משה",
			"lat": "31.252534835000063",
			"lon": "34.807347339000046"
		},
		{
			"Id": "250",
			"neighborho": "ד",
			"street": "אבטליון",
			"HouseNumbe": "28",
			"name": "תקומת ישראל",
			"lat": "31.27208468500004",
			"lon": "34.79610444300005"
		},
		{
			"Id": "251",
			"neighborho": "ג",
			"street": "גולומב",
			"HouseNumbe": "41",
			"name": "גולומב",
			"lat": "31.255430949000072",
			"lon": "34.80323348200005"
		},
		{
			"Id": "252",
			"neighborho": "א",
			"street": "בר אילן",
			"HouseNumbe": "4",
			"name": "אליהו הנביא",
			"lat": "31.246384265000074",
			"lon": "34.79405401500003"
		},
		{
			"Id": "253",
			"neighborho": "א",
			"street": "בר אילן",
			"HouseNumbe": "6",
			"name": "בר יוסף",
			"lat": "31.246114271000067",
			"lon": "34.793937768000035"
		},
		{
			"Id": "254",
			"neighborho": "ב",
			"street": "שטרוק",
			"HouseNumbe": "26",
			"name": "שערי ניסים בהליך",
			"lat": "-1.7976931348623157e+308",
			"lon": "-1.7976931348623157e+308"
		},
		{
			"Id": "255",
			"neighborho": "א",
			"street": "מנדלי מוכ",
			"HouseNumbe": "9",
			"name": "בית ישראל",
			"lat": "31.247254716000043",
			"lon": "34.79287386900006"
		},
		{
			"Id": "256",
			"neighborho": "א",
			"street": "סוקולוב",
			"HouseNumbe": "15",
			"name": "בן ציון",
			"lat": "31.246473624000032",
			"lon": "34.79009668700007"
		},
		{
			"Id": "257",
			"neighborho": "מרכז אזרחי",
			"street": "סולד",
			"HouseNumbe": "4",
			"name": "מלון לאונרדו",
			"lat": "31.24759521900006",
			"lon": "34.801214179000056"
		},
		{
			"Id": "258",
			"neighborho": "מרכז אזרחי",
			"street": "התקוה",
			"HouseNumbe": "4",
			"name": "קרית הממשלה",
			"lat": "31.245412866000038",
			"lon": "34.799771271000054"
		},
		{
			"Id": "259",
			"neighborho": "מרכז אזרחי",
			"street": "קרויצר",
			"HouseNumbe": "4",
			"name": "בית היאס",
			"lat": "31.24688795700007",
			"lon": "34.80168131200003"
		},
		{
			"Id": "260",
			"neighborho": "ו",
			"street": "חשין",
			"HouseNumbe": "13",
			"name": "אורות הזוהר",
			"lat": "31.269280208000055",
			"lon": "34.77493474000005"
		}
	]
}